{"version":0.6,"generator":"Overpass API 0.7.61.5 4133829e","osm3s":{"timestamp_osm_base":"2024-02-19T09:45:44Z","copyright":"The data included in this document is from www.openstreetmap.org. The data is made available under ODbL."},"elements":[{"type":"node","id":2987875498,"lat":46.3916083,"lon":12.2912644,"tags":{"artwork_type":"mural","tourism":"artwork"}},{"type":"node","id":4387442964,"lat":47.3241066,"lon":12.7997141,"tags":{"artwork_type":"mural","tourism":"artwork"}},{"type":"node","id":4519389445,"lat":47.7992008,"lon":13.0485718,"tags":{"artwork_type":"mural","name":"Sonnenuhr","name:ru":"Солнечные часы","tourism":"artwork"}},{"type":"node","id":5836332717,"lat":46.2408574,"lon":12.9624879,"tags":{"artwork_type":"mural","historic":"monument","memorial":"stone","name":"La Mari dal Friûl","tourism":"artwork"}},{"type":"node","id":7820168641,"lat":46.1221355,"lon":12.4635333,"tags":{"artwork_type":"mural","inscription":"San Martin guidene nel nostro cammin","name":"San Martin","natural":"stone","tourism":"artwork"}},{"type":"node","id":7876559267,"lat":47.8541708,"lon":12.1230284,"tags":{"artist_name":"Hera (Jasmin Siddiqui)","artwork_type":"mural","description":"Everybody has a soft spot","name":"Soft Spot","start_date":"2020-09-06","tourism":"artwork","website":"https://galerie.rosenheim.de/ansicht/news/transit-art-festival-2020/"}},{"type":"node","id":8598629627,"lat":46.0405768,"lon":13.1895629,"tags":{"artwork_type":"mural","tourism":"artwork"}},{"type":"node","id":8918954612,"lat":47.8519914,"lon":12.1305853,"tags":{"artist_name":"Julia Benz (http://juliabenz.de/)","artwork_type":"mural","name":"Golden Yellow","tourism":"artwork","website":"https://galerie.rosenheim.de/ansicht/news/transit-art-2021/"}},{"type":"node","id":8918954613,"lat":47.8522548,"lon":12.1146511,"tags":{"artist_name":"Duo Sourati (Christina Laube & Mehrdad Zaeri)","artwork_type":"mural","image":"https://galerie.rosenheim.de/fileadmin/_processed_/c/4/csm_DuoSourati_Heimw%C3%A4rts_Gesamt_Foto__c__Martin_Weiand_c706b1590b.jpg","name":"Heimwärts","tourism":"artwork","website":"https://galerie.rosenheim.de/ansicht/news/transit-art-festival-2020/","img_thumbnail":"node_8918954613_0.jpg"}},{"type":"node","id":8918954615,"lat":47.8550981,"lon":12.1240835,"tags":{"artist_name":"Mr. Woodland (Daniel Westermeier)","artwork_type":"mural","name":"Dare to believe","tourism":"artwork","website":"https://galerie.rosenheim.de/ansicht/news/transit-art-festival-2020/"}},{"type":"node","id":8918997117,"lat":47.8508138,"lon":12.121039,"tags":{"artist_name":"Quintessenz (Tomislav Topic)","artwork_type":"mural","name":"Farbe & Form","tourism":"artwork","website":"https://galerie.rosenheim.de/ansicht/news/transit-art-festival-2020/"}},{"type":"node","id":8942674365,"lat":47.8520412,"lon":12.1274231,"tags":{"artist_name":"ATE Crew (https://ate-crew.de/)","artwork_type":"mural","name":"Society","tourism":"artwork","website":"https://galerie.rosenheim.de/ansicht/news/transit-art-2021/"}},{"type":"node","id":8942674366,"lat":47.849345,"lon":12.1280195,"tags":{"artist_name":"Mr. Woodland (http://misterwoodland.blogspot.com/)","artwork_type":"mural","fixme":"Not sure about name","name":"Incomplete Harmony","tourism":"artwork","website":"https://galerie.rosenheim.de/ansicht/news/transit-art-2021/"}},{"type":"node","id":8942674367,"lat":47.8518059,"lon":12.1275462,"tags":{"artist_name":"ATE Crew (https://ate-crew.de/)","artwork_type":"mural","name":"Change","tourism":"artwork","website":"https://galerie.rosenheim.de/ansicht/news/transit-art-2021/"}},{"type":"node","id":8942674368,"lat":47.854345,"lon":12.1366445,"tags":{"artist_name":"Sabrina Alice Cultrona, Stella Brandlhuber & Elias Brader","artwork_type":"mural","name":"Verbindung","tourism":"artwork","website":"https://galerie.rosenheim.de/ansicht/news/transit-art-2021/"}},{"type":"node","id":8942674369,"lat":47.8495428,"lon":12.1284114,"tags":{"artist_name":"GERA1 (https://gera1.net/)","artwork_type":"mural","name":"-","tourism":"artwork","website":"https://galerie.rosenheim.de/ansicht/news/transit-art-2021/"}},{"type":"node","id":8943976935,"lat":47.8546136,"lon":12.130037,"tags":{"artist_name":"GERA1 (https://gera1.net/)","artwork_type":"mural","description":"Unfinished mural due to problems with the lift (unstable ground).","name":"-","tourism":"artwork","website":"https://galerie.rosenheim.de/ansicht/news/transit-art-2021/"}},{"type":"node","id":9275237913,"lat":46.1671787,"lon":12.8290178,"tags":{"artwork_type":"mural","tourism":"artwork"}},{"type":"node","id":9310301177,"lat":46.1411258,"lon":12.4302798,"tags":{"artwork_type":"mural","inscription":"Barattin 97","tourism":"artwork"}},{"type":"node","id":9670629697,"lat":46.5801636,"lon":12.7561665,"tags":{"artwork_type":"mural","description":"A mosaic showing an angel protecting two children picking flowers","tourism":"artwork"}},{"type":"node","id":9866689707,"lat":46.5642281,"lon":12.4110699,"tags":{"artwork_type":"mural","name":"Galenus","tourism":"artwork"}},{"type":"node","id":9983594843,"lat":46.3734852,"lon":12.128811,"tags":{"artwork_type":"mural","tourism":"artwork"}},{"type":"node","id":9984094696,"lat":46.3741796,"lon":12.1291369,"tags":{"artwork_type":"mural","tourism":"artwork"}},{"type":"node","id":9997890009,"lat":46.37408,"lon":12.1268308,"tags":{"artwork_type":"mural","tourism":"artwork"}},{"type":"node","id":9997890010,"lat":46.374085,"lon":12.1268603,"tags":{"artwork_type":"mural","tourism":"artwork"}},{"type":"node","id":10028050164,"lat":46.2675945,"lon":12.2771749,"tags":{"artwork_type":"mural","tourism":"artwork"}},{"type":"node","id":10028050166,"lat":46.2661093,"lon":12.2761947,"tags":{"artwork_type":"mural","tourism":"artwork"}},{"type":"node","id":10028050167,"lat":46.2652405,"lon":12.2785987,"tags":{"artwork_type":"mural","tourism":"artwork"}},{"type":"node","id":10074930287,"lat":46.0114461,"lon":12.9722528,"tags":{"artwork_type":"mural","tourism":"artwork"}},{"type":"node","id":10076571509,"lat":46.1111346,"lon":12.9037485,"tags":{"artwork_type":"mural","tourism":"artwork"}},{"type":"node","id":10913155898,"lat":47.4752016,"lon":13.937801,"tags":{"artwork_type":"mural","tourism":"artwork"}},{"type":"node","id":11407430930,"lat":46.394199,"lon":12.2945163,"tags":{"artist_name":"Walter Pregnolato","artwork_type":"mural","name":"La vecia e l'Aviano","ref":"12","source":"survey","start_date":"1982","tourism":"artwork"}},{"type":"node","id":11407430931,"lat":46.3879849,"lon":12.2853654,"tags":{"artist_name":"Riccardo Galuppo","artwork_type":"mural","name":"La Fusina","ref":"55","source":"survey","start_date":"2002","tourism":"artwork"}},{"type":"node","id":11407430932,"lat":46.3878781,"lon":12.2854846,"tags":{"artist_name":"Riccardo Galuppo","artwork_type":"mural","name":"Verbum Caro","ref":"54","source":"survey","start_date":"1999","tourism":"artwork"}},{"type":"node","id":11407430933,"lat":46.388079,"lon":12.2852794,"tags":{"artist_name":"Robert Pauletta","artwork_type":"mural","name":"Al Barbier","ref":"46","source":"survey","start_date":"1994","tourism":"artwork"}},{"type":"node","id":11407430937,"lat":46.3895053,"lon":12.2859755,"tags":{"artist_name":"Nader Khaleghpour","artwork_type":"mural","name":"L'Emigrante","ref":"38","source":"survey","start_date":"1991","tourism":"artwork"}},{"type":"node","id":11407430938,"lat":46.3878332,"lon":12.2855462,"tags":{"artist_name":"Gianni Longinotti","artwork_type":"mural","name":"La Fotografies de Cetta","ref":"37","source":"survey","start_date":"1991","tourism":"artwork"}},{"type":"node","id":11407430939,"lat":46.3934243,"lon":12.2937387,"tags":{"artist_name":"Luigi Rincicotti","artwork_type":"mural","name":"Al Moliner","ref":"15","source":"survey","start_date":"1981","tourism":"artwork"}},{"type":"node","id":11407430940,"lat":46.3938811,"lon":12.2940908,"tags":{"artist_name":"Roberto Jooc","artwork_type":"mural","name":"Corpus Domini","ref":"14","source":"survey","start_date":"1984","tourism":"artwork"}},{"type":"node","id":11407430941,"lat":46.3939031,"lon":12.2940739,"tags":{"artist_name":"Mario ALbanese","artwork_type":"mural","name":"Al Mistro","ref":"13","source":"survey","start_date":"1981","tourism":"artwork"}},{"type":"node","id":11407430942,"lat":46.3944787,"lon":12.2949034,"tags":{"artist_name":"Miraldo Beghini","artwork_type":"mural","name":"La Famiglia","ref":"10","source":"survey","start_date":"1981","tourism":"artwork"}},{"type":"node","id":11407430943,"lat":46.3944263,"lon":12.2946903,"tags":{"artist_name":"Ernesto Lomazzi","artwork_type":"mural","name":"I Faure","ref":"8","source":"survey","start_date":"1981","tourism":"artwork"}},{"type":"node","id":11407430944,"lat":46.394642,"lon":12.2949136,"tags":{"artist_name":"Vico Calabro","artwork_type":"mural","name":"Il Mandolino di Rafaelle","ref":"5","source":"survey","start_date":"1980","tourism":"artwork"}},{"type":"node","id":11407430945,"lat":46.3945353,"lon":12.2949303,"tags":{"artist_name":"Giuliano De Rocco","artwork_type":"mural","name":"Letera da lontan","ref":"4","source":"survey","start_date":"1980","tourism":"artwork"}},{"type":"node","id":11407430946,"lat":46.394654,"lon":12.2951599,"tags":{"artist_name":"Galeazzo Vigano","artwork_type":"mural","name":"I Scarpete","ref":"3","source":"survey","start_date":"1983","tourism":"artwork"}},{"type":"node","id":11407430947,"lat":46.3921998,"lon":12.291013,"tags":{"artist_name":"Fulvio Pendini","artwork_type":"mural","name":"Giochi di Bimbi","ref":"43","source":"survey","start_date":"1993","tourism":"artwork"}},{"type":"node","id":11407430948,"lat":46.3916985,"lon":12.2908927,"tags":{"artist_name":"Jovka Andonova Yurukova","artwork_type":"mural","name":"San Lorenzo Patrono","ref":"42","source":"survey","start_date":"1993","tourism":"artwork"}},{"type":"node","id":11407430949,"lat":46.3899257,"lon":12.2859392,"tags":{"artist_name":"Mario Tapia","artwork_type":"mural","name":"Al Forno","ref":"39","source":"survey","start_date":"1992","tourism":"artwork"}},{"type":"node","id":11407430950,"lat":46.3932535,"lon":12.2928742,"tags":{"artist_name":"Ricardo Schweizer","artwork_type":"mural","name":"L'Armonica de Pascal","ref":"17","source":"survey","start_date":"1983","tourism":"artwork"}},{"type":"node","id":11407430951,"lat":46.3870964,"lon":12.2854463,"tags":{"artist_name":"Saverio Barbaro","artwork_type":"mural","name":"L'Emigrazione","ref":"50","source":"survey","start_date":"1997","tourism":"artwork"}},{"type":"node","id":11407527400,"lat":46.3917057,"lon":12.2910522,"tags":{"artist_name":"Yosuke Niwa","artwork_type":"mural","name":"Too Ghen Kio - Utopia","ref":"18","source":"survey","start_date":"1988","tourism":"artwork"}},{"type":"node","id":11407527401,"lat":46.3865636,"lon":12.2848172,"tags":{"artist_name":"Vittorio Basaglia","artwork_type":"mural","name":"Al Falegname","ref":"44","source":"survey","start_date":"1993","tourism":"artwork"}},{"type":"node","id":11407527402,"lat":46.3932725,"lon":12.2934219,"tags":{"artist_name":"Bruna Doria","artwork_type":"mural","name":"La Botega","ref":"16","source":"survey","start_date":"1982","tourism":"artwork"}},{"type":"node","id":11407527403,"lat":46.3892033,"lon":12.2857007,"tags":{"artist_name":"Giorgio Di Venere","artwork_type":"mural","name":"Al Moleta","ref":"47","start_date":"1994","tourism":"artwork"}},{"type":"node","id":11571463618,"lat":46.0615479,"lon":13.2355439,"tags":{"artwork_type":"mural","tourism":"artwork"}},{"type":"way","id":1214803779,"bounds":{"minlat":46.0922595,"minlon":13.232008,"maxlat":46.0923291,"maxlon":13.2320168},"nodes":[11255083092,4634537079,2460977262],"geometry":[{"lat":46.0923291,"lon":13.232008},{"lat":46.0922869,"lon":13.2320142},{"lat":46.0922595,"lon":13.2320168}],"tags":{"artist_name":"Mr. Fijodor","artwork_type":"mural","start_date":"2020","tourism":"artwork"}}]}