{"version":0.6,"generator":"Overpass API 0.7.59 e21c39fe","osm3s":{"timestamp_osm_base":"2022-11-15T13:09:53Z","copyright":"The data included in this document is from www.openstreetmap.org. The data is made available under ODbL."},"elements":[{"type":"node","id":2954233223,"lat":51.1738592,"lon":11.4244641,"tags":{"artwork_type":"mural","tourism":"artwork"}},{"type":"node","id":2954233224,"lat":51.1733178,"lon":11.4239529,"tags":{"artwork_type":"mural","tourism":"artwork"}},{"type":"node","id":2954233225,"lat":51.1752626,"lon":11.4192087,"tags":{"artwork_type":"mural","tourism":"artwork"}},{"type":"node","id":2954276787,"lat":51.1770761,"lon":11.4206127,"tags":{"artwork_type":"mural","tourism":"artwork"}},{"type":"node","id":5295841439,"lat":51.0030907,"lon":11.3635242,"tags":{"artwork_type":"mural","material":"tiles","tourism":"artwork"}},{"type":"node","id":5340805859,"lat":51.0221248,"lon":11.5091098,"tags":{"addr:housenumber":"4","artist_name":"Christoph Hodgson","artwork_type":"mural","description":"Fassadengemälde","name":"Balkon der Prominenten","operator":"Wohnungssellschaft Apolda mbH","start_date":"2013-09-18","tourism":"artwork","website":"http://wg-apolda.de/apoldaerprominente/"}},{"type":"node","id":5340883227,"lat":51.0218362,"lon":11.5092935,"tags":{"addr:city":"Apolda","addr:housenumber":"7","addr:postcode":"99510","addr:street":"Alexanderstraße","artist_name":"Christoph Hodgson","artwork_type":"mural","description":"gebäudeübergreifendes Fassadengemälde","name":"Blumenmotive von Monet","start_date":"2012-07-09","tourism":"artwork","website":"http://wg-apolda.de/blumenmotive-monet-alexanderstrasse-0"}},{"type":"node","id":5340883228,"lat":51.0219111,"lon":11.5089026,"tags":{"addr:city":"Apolda","addr:housenumber":"6","addr:postcode":"99510","addr:street":"Alexanderstraße","artist_name":"Christoph Hodgson","artwork_type":"mural","description":"gebäudeübergreifendes Fassadengemälde","name":"Blumenmotive von Monet","start_date":"2012-07-09","tourism":"artwork","website":"http://wg-apolda.de/blumenmotive-monet-alexanderstrasse-0"}},{"type":"node","id":5340899190,"lat":51.0329721,"lon":11.5149101,"tags":{"addr:city":"Apolda","addr:housenumber":"27","addr:postcode":"99510","addr:street":"Buttstädter Straße","artist_name":"Christoph Hodgson","artwork_type":"mural","description":"Fassadengemälde","name":"Fassadengestaltung Buttstädter Straße","start_date":"2014-07","tourism":"artwork","website":"http://wg-apolda.de/fassadengestaltung-buttstaedter-strasse-0"}},{"type":"node","id":5658522538,"lat":51.0025978,"lon":11.3629884,"tags":{"artwork_type":"mural","tourism":"artwork"}},{"type":"node","id":6737828651,"lat":50.4191913,"lon":11.9856403,"tags":{"artwork_type":"mural","description":"Sehr schönes Putzschnitt-Wandbild des vogtländischen Künstlers Martin Schmidt. Rund 8 * 8 Meter großes DDR-Kunst-Wandbild an der Stirnseite des Schulgebäudes in 08538 Weischlitz OT Krebes, Kemnitzer Str. 3.","image":"https://commons.wikimedia.org/wiki/File:DDR-Kunst_Kindergarten_Krebes.jpg","tourism":"artwork","img_thumbnail":"node_6737828651_0.jpg"}},{"type":"node","id":6948694973,"lat":50.1157346,"lon":11.0523246,"tags":{"artist_name":"Michael Horn","artwork_type":"mural","start_date":"2015-07-10","tourism":"artwork","url":"https://www.artenschutz-steigerwald.de/de/Projekte/75628"}},{"type":"node","id":6948800444,"lat":50.6016333,"lon":10.5957722,"tags":{"artist_name":"Angelika Beuger","artwork_type":"mural","start_date":"2015","tourism":"artwork","website":"https://www.artenschutz-steigerwald.de/de/Projekte/75383/38/"}},{"type":"node","id":7177219759,"lat":50.9747456,"lon":11.3281252,"tags":{"artist_name":"Oskar Schlemmer","artwork_type":"mural_painting","name":"Figurenfries","start_date":"1923 / 1979","tourism":"artwork"}},{"type":"node","id":8099846878,"lat":51.6465973,"lon":11.7255149,"tags":{"artist_name":"Michael Horn","artwork_type":"mural","start_date":"2020-07-19","tourism":"artwork","url":"https://www.artenschutz-steigerwald.de/de/Projekte/1026894/15/"}},{"type":"node","id":9106293394,"lat":50.0448282,"lon":10.2349475,"tags":{"artwork_type":"mural","name":"Impfbanane","tourism":"artwork"}},{"type":"node","id":9603196647,"lat":51.9413094,"lon":11.2164314,"tags":{"artwork_type":"mural","image":"https://flic.kr/p/2naqcHW","name":"Tarif für die Grönngen Oschersleben Neindorfer Chaussee","tourism":"artwork"}},{"type":"node","id":9700074711,"lat":51.4836345,"lon":11.9663493,"tags":{"artwork_type":"mural","name":"Wandbild","tourism":"artwork"}},{"type":"node","id":9826406201,"lat":50.9008849,"lon":11.5731256,"tags":{"artwork_type":"mural","name":"Eichhörnchen","tourism":"artwork"}},{"type":"node","id":9826406202,"lat":50.9001831,"lon":11.5776877,"tags":{"artwork_type":"mural","tourism":"artwork"}},{"type":"way","id":64238645,"bounds":{"minlat":50.6833799,"minlon":11.2642176,"maxlat":50.6834614,"maxlon":11.2643602},"nodes":[791276472,791276625,791276689,791276534,791276472],"geometry":[{"lat":50.6834614,"lon":11.264247},{"lat":50.6834386,"lon":11.2643602},{"lat":50.6833799,"lon":11.2643308},{"lat":50.6834027,"lon":11.2642176},{"lat":50.6834614,"lon":11.264247}],"tags":{"artwork_type":"mural","building":"yes","building:levels":"1","operator":"E.ON","power":"substation","tourism":"artwork"}},{"type":"way","id":93872160,"bounds":{"minlat":50.663506,"minlon":11.5677648,"maxlat":50.663558,"maxlon":11.5678239},"nodes":[707146727,2183269038,707146728,705091139],"geometry":[{"lat":50.663506,"lon":11.5678239},{"lat":50.6635266,"lon":11.5678005},{"lat":50.6635505,"lon":11.5677734},{"lat":50.663558,"lon":11.5677648}],"tags":{"artwork_type":"mural","barrier":"wall","height":"3","tourism":"artwork"}}]}