{"version":0.6,"generator":"Overpass API 0.7.59.2 0994154d","osm3s":{"timestamp_osm_base":"2023-03-26T14:13:39Z","copyright":"The data included in this document is from www.openstreetmap.org. The data is made available under ODbL."},"elements":[{"type":"node","id":4387442964,"lat":47.3241066,"lon":12.7997141,"tags":{"artwork_type":"mural","tourism":"artwork"}},{"type":"node","id":4519389445,"lat":47.7992008,"lon":13.0485718,"tags":{"artwork_type":"mural","name":"Sonnenuhr","name:ru":"Солнечные часы","tourism":"artwork"}},{"type":"node","id":5836332717,"lat":46.2408574,"lon":12.9624879,"tags":{"artwork_type":"mural","historic":"monument","memorial":"stone","name":"La Mari dal Friûl","tourism":"artwork"}},{"type":"node","id":7820168641,"lat":46.1221355,"lon":12.4635333,"tags":{"artwork_type":"mural","inscription":"San Martin guidene nel nostro cammin","name":"San Martin","natural":"stone","tourism":"artwork"}},{"type":"node","id":7876559267,"lat":47.8541708,"lon":12.1230284,"tags":{"artist_name":"Hera (Jasmin Siddiqui)","artwork_type":"mural","description":"Everybody has a soft spot","name":"Soft Spot","start_date":"2020-09-06","tourism":"artwork","website":"https://galerie.rosenheim.de/ansicht/news/transit-art-festival-2020/"}},{"type":"node","id":8598629627,"lat":46.0405768,"lon":13.1895629,"tags":{"artwork_type":"mural","tourism":"artwork"}},{"type":"node","id":8918954612,"lat":47.8519914,"lon":12.1305853,"tags":{"artist_name":"Julia Benz (http://juliabenz.de/)","artwork_type":"mural","name":"Golden Yellow","tourism":"artwork","website":"https://galerie.rosenheim.de/ansicht/news/transit-art-2021/"}},{"type":"node","id":8918954613,"lat":47.852266,"lon":12.1146419,"tags":{"artist_name":"Duo Sourati (Christina Laube & Mehrdad Zaeri)","artwork_type":"mural","image":"https://galerie.rosenheim.de/fileadmin/_processed_/c/4/csm_DuoSourati_Heimw%C3%A4rts_Gesamt_Foto__c__Martin_Weiand_c706b1590b.jpg","name":"Heimwärts","tourism":"artwork","website":"https://galerie.rosenheim.de/ansicht/news/transit-art-festival-2020/","img_thumbnail":"node_8918954613_0.jpg"}},{"type":"node","id":8918954614,"lat":47.8537719,"lon":12.1210768,"tags":{"artist_name":"Julian Strohmeier","artwork_type":"mural","description":"Lisi Block died at the age of 19, she was a victim of the Holocaust.","name":"Lisi Block","tourism":"artwork","website":"https://galerie.rosenheim.de/ansicht/news/transit-art-festival-2020/"}},{"type":"node","id":8918954615,"lat":47.8550981,"lon":12.1240835,"tags":{"artist_name":"Mr. Woodland (Daniel Westermeier)","artwork_type":"mural","name":"Dare to believe","tourism":"artwork","website":"https://galerie.rosenheim.de/ansicht/news/transit-art-festival-2020/"}},{"type":"node","id":8918954616,"lat":47.8537958,"lon":12.1208075,"tags":{"artist_name":"Corbinian Nicolai","artwork_type":"mural","name":"Listening","tourism":"artwork","website":"https://galerie.rosenheim.de/ansicht/news/transit-art-festival-2020/"}},{"type":"node","id":8918997117,"lat":47.8508138,"lon":12.121039,"tags":{"artist_name":"Quintessenz (Tomislav Topic)","artwork_type":"mural","name":"Farbe & Form","tourism":"artwork","website":"https://galerie.rosenheim.de/ansicht/news/transit-art-festival-2020/"}},{"type":"node","id":8942674365,"lat":47.8520412,"lon":12.1274231,"tags":{"artist_name":"ATE Crew (https://ate-crew.de/)","artwork_type":"mural","name":"Society","tourism":"artwork","website":"https://galerie.rosenheim.de/ansicht/news/transit-art-2021/"}},{"type":"node","id":8942674366,"lat":47.849345,"lon":12.1280195,"tags":{"artist_name":"Mr. Woodland (http://misterwoodland.blogspot.com/)","artwork_type":"mural","fixme":"Not sure about name","name":"Incomplete Harmony","tourism":"artwork","website":"https://galerie.rosenheim.de/ansicht/news/transit-art-2021/"}},{"type":"node","id":8942674367,"lat":47.8518059,"lon":12.1275462,"tags":{"artist_name":"ATE Crew (https://ate-crew.de/)","artwork_type":"mural","name":"Change","tourism":"artwork","website":"https://galerie.rosenheim.de/ansicht/news/transit-art-2021/"}},{"type":"node","id":8942674368,"lat":47.854345,"lon":12.1366445,"tags":{"artist_name":"Sabrina Alice Cultrona, Stella Brandlhuber & Elias Brader","artwork_type":"mural","name":"Verbindung","tourism":"artwork","website":"https://galerie.rosenheim.de/ansicht/news/transit-art-2021/"}},{"type":"node","id":8942674369,"lat":47.8495428,"lon":12.1284114,"tags":{"artist_name":"GERA1 (https://gera1.net/)","artwork_type":"mural","name":"-","tourism":"artwork","website":"https://galerie.rosenheim.de/ansicht/news/transit-art-2021/"}},{"type":"node","id":8943976935,"lat":47.8546136,"lon":12.130037,"tags":{"artist_name":"GERA1 (https://gera1.net/)","artwork_type":"mural","description":"Unfinished mural due to problems with the lift (unstable ground).","name":"-","tourism":"artwork","website":"https://galerie.rosenheim.de/ansicht/news/transit-art-2021/"}},{"type":"node","id":9275237913,"lat":46.1671787,"lon":12.8290178,"tags":{"artwork_type":"mural","tourism":"artwork"}},{"type":"node","id":9310301177,"lat":46.1411258,"lon":12.4302798,"tags":{"artwork_type":"mural","inscription":"Barattin 97","tourism":"artwork"}},{"type":"node","id":9670629697,"lat":46.5801636,"lon":12.7561665,"tags":{"artwork_type":"mural","description":"A mosaic showing an angel protecting two children picking flowers","tourism":"artwork"}},{"type":"node","id":9866689707,"lat":46.5642281,"lon":12.4110699,"tags":{"artwork_type":"mural","name":"Galenus","tourism":"artwork"}},{"type":"node","id":9983594843,"lat":46.3734852,"lon":12.128811,"tags":{"artwork_type":"mural","tourism":"artwork"}},{"type":"node","id":9984094696,"lat":46.3741796,"lon":12.1291369,"tags":{"artwork_type":"mural","tourism":"artwork"}},{"type":"node","id":9997890009,"lat":46.37408,"lon":12.1268308,"tags":{"artwork_type":"mural","tourism":"artwork"}},{"type":"node","id":9997890010,"lat":46.374085,"lon":12.1268603,"tags":{"artwork_type":"mural","tourism":"artwork"}},{"type":"node","id":10028050164,"lat":46.2675945,"lon":12.2771749,"tags":{"artwork_type":"mural","tourism":"artwork"}},{"type":"node","id":10028050166,"lat":46.2661093,"lon":12.2761947,"tags":{"artwork_type":"mural","tourism":"artwork"}},{"type":"node","id":10028050167,"lat":46.2652405,"lon":12.2785987,"tags":{"artwork_type":"mural","tourism":"artwork"}},{"type":"node","id":10074930287,"lat":46.0114461,"lon":12.9722528,"tags":{"artwork_type":"mural","tourism":"artwork"}},{"type":"node","id":10076571509,"lat":46.1111346,"lon":12.9037485,"tags":{"artwork_type":"mural","tourism":"artwork"}}]}